<?xml version="1.0" encoding="UTF-8"?>

<queryCapability
xmlns="http://www.unidata.ucar.edu/schemas/thredds/queryCapability"
xmlns:xsi="http://www.w3.org/2001/XMLSchema-instance"
xsi:schemaLocation="http://www.unidata.ucar.edu/schemas/thredds/queryCapability
http://www.unidata.ucar.edu/projects/thredds/xml/queryCapability.xsd" name="Real-Time Zone data" version="0.6">

    <query action="http://motherlode.ucar.edu:8080/thredds/cgi-bin/ZoneServer.pl?" construct="append" returns="catalog" />

    <selections>

        <selectStation id="station" template="stn=%value%&amp;"
            label="Stations:" selectType="multiple" required="true">

            <station name="Lauderdale AL US" value="ALZ001">
                <location latitude="34.89" longitude="-87.78"/>
            </station>
            <station name="Colbert AL US" value="ALZ002">
                <location latitude="34.65" longitude="-87.83"/>
            </station>
            <station name="Franklin AL US" value="ALZ003">
                <location latitude="34.43" longitude="-87.84"/>
            </station>
            <station name="Lawrence AL US" value="ALZ004">
                <location latitude="34.51" longitude="-87.29"/>
            </station>
            <station name="Limestone AL US" value="ALZ005">
                <location latitude="34.83" longitude="-86.94"/>
            </station>
            <station name="Madison AL US" value="ALZ006">
                <location latitude="34.76" longitude="-86.54"/>
            </station>
            <station name="Morgan AL US" value="ALZ007">
                <location latitude="34.41" longitude="-86.85"/>
            </station>
            <station name="Marshall AL US" value="ALZ008">
                <location latitude="34.37" longitude="-86.30"/>
            </station>
            <station name="Jackson AL US" value="ALZ009">
                <location latitude="34.76" longitude="-86.01"/>
            </station>
            <station name="De Kalb AL US" value="ALZ010">
                <location latitude="34.44" longitude="-85.83"/>
            </station>
            <station name="Marion AL US" value="ALZ011">
                <location latitude="34.15" longitude="-87.86"/>
            </station>
            <station name="Lamar AL US" value="ALZ012">
                <location latitude="33.79" longitude="-88.06"/>
            </station>
            <station name="Fayette AL US" value="ALZ013">
                <location latitude="33.75" longitude="-87.74"/>
            </station>
            <station name="Winston AL US" value="ALZ014">
                <location latitude="34.15" longitude="-87.38"/>
            </station>
            <station name="Walker AL US" value="ALZ015">
                <location latitude="33.82" longitude="-87.26"/>
            </station>
            <station name="Cullman AL US" value="ALZ016">
                <location latitude="34.14" longitude="-86.89"/>
            </station>
            <station name="Blount AL US" value="ALZ017">
                <location latitude="33.99" longitude="-86.51"/>
            </station>
            <station name="Etowah AL US" value="ALZ018">
                <location latitude="34.05" longitude="-86.04"/>
            </station>
            <station name="Calhoun AL US" value="ALZ019">
                <location latitude="33.77" longitude="-85.80"/>
            </station>
            <station name="Cherokee AL US" value="ALZ020">
                <location latitude="34.15" longitude="-85.59"/>
            </station>
            <station name="Cleburne AL US" value="ALZ021">
                <location latitude="33.67" longitude="-85.49"/>
            </station>
            <station name="Pickens AL US" value="ALZ022">
                <location latitude="33.28" longitude="-88.06"/>
            </station>
            <station name="Tuscaloosa AL US" value="ALZ023">
                <location latitude="33.29" longitude="-87.52"/>
            </station>
            <station name="Jefferson AL US" value="ALZ024">
                <location latitude="33.59" longitude="-86.89"/>
            </station>
            <station name="Shelby AL US" value="ALZ025">
                <location latitude="33.27" longitude="-86.66"/>
            </station>
            <station name="St. Clair AL US" value="ALZ026">
                <location latitude="33.72" longitude="-86.34"/>
            </station>
            <station name="Talladega AL US" value="ALZ027">
                <location latitude="33.40" longitude="-86.16"/>
            </station>
            <station name="Clay AL US" value="ALZ028">
                <location latitude="33.28" longitude="-85.82"/>
            </station>
            <station name="Randolph AL US" value="ALZ029">
                <location latitude="33.31" longitude="-85.47"/>
            </station>
            <station name="Sumter AL US" value="ALZ030">
                <location latitude="32.54" longitude="-88.22"/>
            </station>
            <station name="Greene AL US" value="ALZ031">
                <location latitude="32.89" longitude="-87.96"/>
            </station>
            <station name="Hale AL US" value="ALZ032">
                <location latitude="32.78" longitude="-87.61"/>
            </station>
            <station name="Perry AL US" value="ALZ033">
                <location latitude="32.68" longitude="-87.27"/>
            </station>
            <station name="Bibb AL US" value="ALZ034">
                <location latitude="32.99" longitude="-87.12"/>
            </station>
            <station name="Chilton AL US" value="ALZ035">
                <location latitude="32.88" longitude="-86.69"/>
            </station>
            <station name="Coosa AL US" value="ALZ036">
                <location latitude="32.94" longitude="-86.24"/>
            </station>
            <station name="Tallapoosa AL US" value="ALZ037">
                <location latitude="32.89" longitude="-85.78"/>
            </station>
            <station name="Chambers AL US" value="ALZ038">
                <location latitude="32.93" longitude="-85.39"/>
            </station>
            <station name="Marengo AL US" value="ALZ039">
                <location latitude="32.27" longitude="-87.72"/>
            </station>
            <station name="Dallas AL US" value="ALZ040">
                <location latitude="32.32" longitude="-87.10"/>
            </station>
            <station name="Autauga AL US" value="ALZ041">
                <location latitude="32.54" longitude="-86.61"/>
            </station>
            <station name="Lowndes AL US" value="ALZ042">
                <location latitude="32.14" longitude="-86.64"/>
            </station>
            <station name="Elmore AL US" value="ALZ043">
                <location latitude="32.60" longitude="-86.14"/>
            </station>
            <station name="Montgomery AL US" value="ALZ044">
                <location latitude="32.22" longitude="-86.19"/>
            </station>
            <station name="Macon AL US" value="ALZ045">
                <location latitude="32.40" longitude="-85.69"/>
            </station>
            <station name="Bullock AL US" value="ALZ046">
                <location latitude="32.11" longitude="-85.72"/>
            </station>
            <station name="Lee AL US" value="ALZ047">
                <location latitude="32.62" longitude="-85.32"/>
            </station>
            <station name="Russell AL US" value="ALZ048">
                <location latitude="32.30" longitude="-85.19"/>
            </station>
            <station name="Pike AL US" value="ALZ049">
                <location latitude="31.82" longitude="-85.94"/>
            </station>
            <station name="Barbour AL US" value="ALZ050">
                <location latitude="31.89" longitude="-85.35"/>
            </station>
            <station name="Choctaw AL US" value="ALZ051">
                <location latitude="32.01" longitude="-88.29"/>
            </station>
            <station name="Washington AL US" value="ALZ052">
                <location latitude="31.41" longitude="-88.21"/>
            </station>
            <station name="Clarke AL US" value="ALZ053">
                <location latitude="31.74" longitude="-87.81"/>
            </station>
            <station name="Wilcox AL US" value="ALZ054">
                <location latitude="31.99" longitude="-87.38"/>
            </station>
            <station name="Monroe AL US" value="ALZ055">
                <location latitude="31.59" longitude="-87.35"/>
            </station>
            <station name="Conecuh AL US" value="ALZ056">
                <location latitude="31.43" longitude="-87.00"/>
            </station>
            <station name="Butler AL US" value="ALZ057">
                <location latitude="31.76" longitude="-86.68"/>
            </station>
            <station name="Crenshaw AL US" value="ALZ058">
                <location latitude="31.71" longitude="-86.31"/>
            </station>
            <station name="Escambia AL US" value="ALZ059">
                <location latitude="31.14" longitude="-87.17"/>
            </station>
            <station name="Covington AL US" value="ALZ060">
                <location latitude="31.27" longitude="-86.46"/>
            </station>
            <station name="Upper Mobile AL US" value="ALZ061">
                <location latitude="30.98" longitude="-88.21"/>
            </station>
            <station name="Upper Baldwin AL US" value="ALZ062">
                <location latitude="31.03" longitude="-87.74"/>
            </station>
            <station name="Lower Mobile AL US" value="ALZ063">
                <location latitude="30.57" longitude="-88.24"/>
            </station>
            <station name="Lower Baldwin AL US" value="ALZ064">
                <location latitude="30.55" longitude="-87.68"/>
            </station>
            <station name="Coffee AL US" value="ALZ065">
                <location latitude="31.41" longitude="-85.98"/>
            </station>
            <station name="Dale AL US" value="ALZ066">
                <location latitude="31.45" longitude="-85.60"/>
            </station>
            <station name="Henry AL US" value="ALZ067">
                <location latitude="31.51" longitude="-85.24"/>
            </station>
            <station name="Geneva AL US" value="ALZ068">
                <location latitude="31.08" longitude="-85.85"/>
            </station>
            <station name="Houston AL US" value="ALZ069">
                <location latitude="31.13" longitude="-85.28"/>
            </station>
            <station name="Benton AR US" value="ARZ001">
                <location latitude="36.36" longitude="-94.26"/>
            </station>
            <station name="Carroll AR US" value="ARZ002">
                <location latitude="36.35" longitude="-93.49"/>
            </station>
            <station name="Boone AR US" value="ARZ003">
                <location latitude="36.31" longitude="-93.06"/>
            </station>
            <station name="Marion AR US" value="ARZ004">
                <location latitude="36.27" longitude="-92.70"/>
            </station>
            <station name="Baxter AR US" value="ARZ005">
                <location latitude="36.32" longitude="-92.31"/>
            </station>
            <station name="Fulton AR US" value="ARZ006">
                <location latitude="36.36" longitude="-91.84"/>
            </station>
            <station name="Sharp AR US" value="ARZ007">
                <location latitude="36.11" longitude="-91.49"/>
            </station>
            <station name="Randolph AR US" value="ARZ008">
                <location latitude="36.34" longitude="-91.04"/>
            </station>
            <station name="Clay AR US" value="ARZ009">
                <location latitude="36.36" longitude="-90.48"/>
            </station>
            <station name="Washington AR US" value="ARZ010">
                <location latitude="35.97" longitude="-94.19"/>
            </station>
            <station name="Madison AR US" value="ARZ011">
                <location latitude="36.00" longitude="-93.72"/>
            </station>
            <station name="Newton AR US" value="ARZ012">
                <location latitude="35.93" longitude="-93.20"/>
            </station>
            <station name="Searcy AR US" value="ARZ013">
                <location latitude="35.91" longitude="-92.71"/>
            </station>
            <station name="Stone AR US" value="ARZ014">
                <location latitude="35.84" longitude="-92.23"/>
            </station>
            <station name="Izard AR US" value="ARZ015">
                <location latitude="36.07" longitude="-91.93"/>
            </station>
            <station name="Independence AR US" value="ARZ016">
                <location latitude="35.70" longitude="-91.58"/>
            </station>
            <station name="Lawrence AR US" value="ARZ017">
                <location latitude="35.99" longitude="-91.13"/>
            </station>
            <station name="Greene AR US" value="ARZ018">
                <location latitude="36.11" longitude="-90.55"/>
            </station>
            <station name="Crawford AR US" value="ARZ019">
                <location latitude="35.58" longitude="-94.25"/>
            </station>
            <station name="Franklin AR US" value="ARZ020">
                <location latitude="35.54" longitude="-93.86"/>
            </station>
            <station name="Johnson AR US" value="ARZ021">
                <location latitude="35.58" longitude="-93.49"/>
            </station>
            <station name="Pope AR US" value="ARZ022">
                <location latitude="35.45" longitude="-93.02"/>
            </station>
            <station name="Van Buren AR US" value="ARZ023">
                <location latitude="35.58" longitude="-92.53"/>
            </station>
            <station name="Cleburne AR US" value="ARZ024">
                <location latitude="35.55" longitude="-92.04"/>
            </station>
            <station name="Jackson AR US" value="ARZ025">
                <location latitude="35.60" longitude="-91.20"/>
            </station>
            <station name="Craighead AR US" value="ARZ026">
                <location latitude="35.82" longitude="-90.65"/>
            </station>
            <station name="Poinsett AR US" value="ARZ027">
                <location latitude="35.56" longitude="-90.65"/>
            </station>
            <station name="Mississippi AR US" value="ARZ028">
                <location latitude="35.74" longitude="-90.14"/>
            </station>
            <station name="Sebastian AR US" value="ARZ029">
                <location latitude="35.21" longitude="-94.27"/>
            </station>
            <station name="Logan AR US" value="ARZ030">
                <location latitude="35.23" longitude="-93.69"/>
            </station>
            <station name="Conway AR US" value="ARZ031">
                <location latitude="35.25" longitude="-92.66"/>
            </station>
            <station name="Faulkner AR US" value="ARZ032">
                <location latitude="35.13" longitude="-92.31"/>
            </station>
            <station name="White AR US" value="ARZ033">
                <location latitude="35.23" longitude="-91.70"/>
            </station>
            <station name="Woodruff AR US" value="ARZ034">
                <location latitude="35.17" longitude="-91.21"/>
            </station>
            <station name="Cross AR US" value="ARZ035">
                <location latitude="35.29" longitude="-90.76"/>
            </station>
            <station name="Crittenden AR US" value="ARZ036">
                <location latitude="35.25" longitude="-90.29"/>
            </station>
            <station name="Scott AR US" value="ARZ037">
                <location latitude="34.85" longitude="-94.08"/>
            </station>
            <station name="Yell AR US" value="ARZ038">
                <location latitude="35.00" longitude="-93.45"/>
            </station>
            <station name="Perry AR US" value="ARZ039">
                <location latitude="34.95" longitude="-92.95"/>
            </station>
            <station name="Polk AR US" value="ARZ040">
                <location latitude="34.54" longitude="-94.23"/>
            </station>
            <station name="Montgomery AR US" value="ARZ041">
                <location latitude="34.57" longitude="-93.65"/>
            </station>
            <station name="Garland AR US" value="ARZ042">
                <location latitude="34.60" longitude="-93.15"/>
            </station>
            <station name="Saline AR US" value="ARZ043">
                <location latitude="34.67" longitude="-92.71"/>
            </station>
            <station name="Pulaski AR US" value="ARZ044">
                <location latitude="34.77" longitude="-92.27"/>
            </station>
            <station name="Lonoke AR US" value="ARZ045">
                <location latitude="34.77" longitude="-91.90"/>
            </station>
            <station name="Prairie AR US" value="ARZ046">
                <location latitude="34.84" longitude="-91.53"/>
            </station>
            <station name="Monroe AR US" value="ARZ047">
                <location latitude="34.69" longitude="-91.22"/>
            </station>
            <station name="St. Francis AR US" value="ARZ048">
                <location latitude="35.02" longitude="-90.76"/>
            </station>
            <station name="Lee AR US" value="ARZ049">
                <location latitude="34.77" longitude="-90.78"/>
            </station>
            <station name="Sevier AR US" value="ARZ050">
                <location latitude="34.03" longitude="-94.29"/>
            </station>
            <station name="Howard AR US" value="ARZ051">
                <location latitude="34.12" longitude="-93.98"/>
            </station>
            <station name="Pike AR US" value="ARZ052">
                <location latitude="34.18" longitude="-93.66"/>
            </station>
            <station name="Clark AR US" value="ARZ053">
                <location latitude="34.05" longitude="-93.19"/>
            </station>
            <station name="Hot Spring AR US" value="ARZ054">
                <location latitude="34.32" longitude="-92.84"/>
            </station>
            <station name="Grant AR US" value="ARZ055">
                <location latitude="34.30" longitude="-92.44"/>
            </station>
            <station name="Jefferson AR US" value="ARZ056">
                <location latitude="34.30" longitude="-92.00"/>
            </station>
            <station name="Arkansas AR US" value="ARZ057">
                <location latitude="34.32" longitude="-91.37"/>
            </station>
            <station name="Phillips AR US" value="ARZ058">
                <location latitude="34.46" longitude="-90.82"/>
            </station>
            <station name="Little River AR US" value="ARZ059">
                <location latitude="33.70" longitude="-94.29"/>
            </station>
            <station name="Hempstead AR US" value="ARZ060">
                <location latitude="33.75" longitude="-93.65"/>
            </station>
            <station name="Nevada AR US" value="ARZ061">
                <location latitude="33.66" longitude="-93.30"/>
            </station>
            <station name="Dallas AR US" value="ARZ062">
                <location latitude="33.96" longitude="-92.63"/>
            </station>
            <station name="Cleveland AR US" value="ARZ063">
                <location latitude="33.90" longitude="-92.13"/>
            </station>
            <station name="Lincoln AR US" value="ARZ064">
                <location latitude="33.94" longitude="-91.70"/>
            </station>
            <station name="Desha AR US" value="ARZ065">
                <location latitude="33.84" longitude="-91.28"/>
            </station>
            <station name="Ouachita AR US" value="ARZ066">
                <location latitude="33.58" longitude="-92.95"/>
            </station>
            <station name="Calhoun AR US" value="ARZ067">
                <location latitude="33.58" longitude="-92.49"/>
            </station>
            <station name="Bradley AR US" value="ARZ068">
                <location latitude="33.48" longitude="-92.15"/>
            </station>
            <station name="Drew AR US" value="ARZ069">
                <location latitude="33.59" longitude="-91.73"/>
            </station>
            <station name="Miller AR US" value="ARZ070">
                <location latitude="33.33" longitude="-93.89"/>
            </station>
            <station name="Lafayette AR US" value="ARZ071">
                <location latitude="33.25" longitude="-93.57"/>
            </station>
            <station name="Columbia AR US" value="ARZ072">
                <location latitude="33.20" longitude="-93.20"/>
            </station>
            <station name="Union AR US" value="ARZ073">
                <location latitude="33.15" longitude="-92.59"/>
            </station>
            <station name="Ashley AR US" value="ARZ074">
                <location latitude="33.18" longitude="-91.75"/>
            </station>
            <station name="Chicot AR US" value="ARZ075">
                <location latitude="33.27" longitude="-91.28"/>
            </station>
            <station name="Northern Mohave AZ US" value="AZZ001">
                <location latitude="36.60" longitude="-113.30"/>
            </station>
            <station name="Extreme Western Mohave AZ US" value="AZZ002">
                <location latitude="34.80" longitude="-114.40"/>
            </station>
            <station name="Southwest Mohave AZ US" value="AZZ003">
                <location latitude="35.30" longitude="-113.90"/>
            </station>
            <station name="Extreme Northwest Coconino AZ US" value="AZZ004">
                <location latitude="36.70" longitude="-112.30"/>
            </station>
            <station name=" AZ US" value="AZZ005">
                <location latitude="36.75" longitude="-111.80"/>
            </station>
            <station name="Northwest Coconino AZ US" value="AZZ006">
                <location latitude="36.20" longitude="-112.40"/>
            </station>
            <station name="Central Coconino AZ US" value="AZZ007">
                <location latitude="35.70" longitude="-112.40"/>
            </station>
            <station name="Yavapai AZ US" value="AZZ008">
                <location latitude="34.60" longitude="-112.50"/>
            </station>
            <station name="NE Cocino/N Navajo/Centrl Apache AZ US" value="AZZ009">
                <location latitude="35.90" longitude="-110.40"/>
            </station>
            <station name="Northern Apache AZ US" value="AZZ010">
                <location latitude="36.60" longitude="-109.60"/>
            </station>
            <station name="Northeast Apache AZ US" value="AZZ011">
                <location latitude="35.80" longitude="-109.20"/>
            </station>
            <station name="E Cocino/SC Navajo/SC Apache AZ US" value="AZZ012">
                <location latitude="35.65" longitude="-111.40"/>
            </station>
            <station name=" AZ US" value="AZZ013">
                <location latitude="34.70" longitude="-110.25"/>
            </station>
            <station name=" AZ US" value="AZZ014">
                <location latitude="34.50" longitude="-109.45"/>
            </station>
            <station name=" AZ US" value="AZZ015">
                <location latitude="35.25" longitude="-111.80"/>
            </station>
            <station name="Mogollan Rim AZ US" value="AZZ016">
                <location latitude="34.70" longitude="-111.30"/>
            </station>
            <station name="White Mountains AZ US" value="AZZ017">
                <location latitude="34.00" longitude="-109.60"/>
            </station>
            <station name="Northern Gila AZ US" value="AZZ018">
                <location latitude="34.00" longitude="-111.00"/>
            </station>
            <station name="Northern Greenlee AZ US" value="AZZ019">
                <location latitude="33.40" longitude="-109.30"/>
            </station>
            <station name="Western LaPaz/Western Yuma AZ US" value="AZZ020">
                <location latitude="33.30" longitude="-114.50"/>
            </station>
            <station name="Northern LaPaz/SW Yavapai AZ US" value="AZZ021">
                <location latitude="33.80" longitude="-113.60"/>
            </station>
            <station name="Eastern Yuma AZ US" value="AZZ022">
                <location latitude="32.80" longitude="-113.80"/>
            </station>
            <station name="Southern Maricopa AZ US" value="AZZ023">
                <location latitude="32.90" longitude="-112.80"/>
            </station>
            <station name="Central Maricopa/NW Pinal AZ US" value="AZZ024">
                <location latitude="33.60" longitude="-112.30"/>
            </station>
            <station name="E Maricopa/S Gila/X N Pinal AZ US" value="AZZ025">
                <location latitude="33.50" longitude="-111.00"/>
            </station>
            <station name="Western Pima AZ US" value="AZZ026">
                <location latitude="32.10" longitude="-112.40"/>
            </station>
            <station name="Southeast Pinal AZ US" value="AZZ027">
                <location latitude="32.80" longitude="-111.00"/>
            </station>
            <station name="Eastern Pima/Santa Cruz AZ US" value="AZZ028">
                <location latitude="32.10" longitude="-110.90"/>
            </station>
            <station name="Graham/Southern Greenlee AZ US" value="AZZ029">
                <location latitude="32.90" longitude="-109.80"/>
            </station>
            <station name="Cochise AZ US" value="AZZ030">
                <location latitude="31.90" longitude="-109.70"/>
            </station>
            <station name=" AZ US" value="AZZ031">
                <location latitude="36.00" longitude="-114.45"/>
            </station>
            <station name="Western Moffat/NW Rio Blanco CO US" value="COZ001">
                <location latitude="40.70" longitude="-108.70"/>
            </station>
            <station name="E Moffat/W Routt/NCnt Rio Blanco CO US" value="COZ002">
                <location latitude="40.50" longitude="-107.90"/>
            </station>
            <station name="W Garfield/SW Rio Blanco/NC Mesa CO US" value="COZ003">
                <location latitude="39.70" longitude="-108.50"/>
            </station>
            <station name="E Rio Blanco/NE Garfield/SE Rout CO US" value="COZ004">
                <location latitude="40.00" longitude="-107.30"/>
            </station>
            <station name="Central Routt CO US" value="COZ005">
                <location latitude="40.50" longitude="-107.00"/>
            </station>
            <station name="NW Mesa/Extreme SE Garfield CO US" value="COZ006">
                <location latitude="38.90" longitude="-108.50"/>
            </station>
            <station name="EC Garfield/X NC Mesa/X SW Eagle CO US" value="COZ007">
                <location latitude="39.60" longitude="-107.60"/>
            </station>
            <station name="North Central Eagle/SE Routt CO US" value="COZ008">
                <location latitude="39.80" longitude="-106.90"/>
            </station>
            <station name="E Mesa/N Delta/S Cent Garfield CO US" value="COZ009">
                <location latitude="39.10" longitude="-107.70"/>
            </station>
            <station name="SE Eagle/S and C Pitkin/SE Garfield CO US" value="COZ010">
                <location latitude="39.40" longitude="-106.70"/>
            </station>
            <station name="SC Delta/EC and XNW Montrose/NC Oura CO US" value="COZ011">
                <location latitude="38.80" longitude="-107.90"/>
            </station>
            <station name="C Gunnison/W Chaffee/W Lake/XE D CO US" value="COZ012">
                <location latitude="38.80" longitude="-106.80"/>
            </station>
            <station name="SW Gunnison/Eastern Montrose CO US" value="COZ014">
                <location latitude="38.40" longitude="-107.20"/>
            </station>
            <station name="C Montrose/SW Mesa/NW Ouray/NE S CO US" value="COZ017">
                <location latitude="38.50" longitude="-108.40"/>
            </station>
            <station name="N Hinsdale/X S Gunnison/SE Ouray CO US" value="COZ018">
                <location latitude="38.00" longitude="-107.40"/>
            </station>
            <station name="NE La Plata/S Hinsdale/San Juan/ CO US" value="COZ019">
                <location latitude="37.70" longitude="-107.70"/>
            </station>
            <station name="C San Miguel/W Montrose/NC Dolor CO US" value="COZ020">
                <location latitude="38.10" longitude="-108.60"/>
            </station>
            <station name="W Montezuma/W Dolores/SW San Mig CO US" value="COZ021">
                <location latitude="37.40" longitude="-108.70"/>
            </station>
            <station name="Southern La Plata CO US" value="COZ022">
                <location latitude="37.20" longitude="-107.80"/>
            </station>
            <station name="SW and Central Archuleta CO US" value="COZ023">
                <location latitude="37.10" longitude="-107.10"/>
            </station>
            <station name="SW and South Central Grand CO US" value="COZ032">
                <location latitude="40.00" longitude="-106.20"/>
            </station>
            <station name="N and C Grand/W,E,S Rim of Jackson CO US" value="COZ033">
                <location latitude="40.30" longitude="-106.20"/>
            </station>
            <station name="Summit/S Grand/NW Park/W Clear C CO US" value="COZ034">
                <location latitude="39.60" longitude="-105.90"/>
            </station>
            <station name="La Garita Mountains/W Saguache CO US" value="COZ060">
                <location latitude="38.23" longitude="-106.78"/>
            </station>
            <station name="Litchfield CT US" value="CTZ001">
                <location latitude="41.79" longitude="-73.28"/>
            </station>
            <station name="Hartford CT US" value="CTZ002">
                <location latitude="41.81" longitude="-72.71"/>
            </station>
            <station name="Tolland CT US" value="CTZ003">
                <location latitude="41.86" longitude="-72.35"/>
            </station>
            <station name="Windham CT US" value="CTZ004">
                <location latitude="41.84" longitude="-72.00"/>
            </station>
            <station name="Northern Fairfield CT US" value="CTZ005">
                <location latitude="41.40" longitude="-73.40"/>
            </station>
            <station name="Northern New Haven CT US" value="CTZ006">
                <location latitude="41.49" longitude="-72.99"/>
            </station>
            <station name="Northern Middlesex CT US" value="CTZ007">
                <location latitude="41.56" longitude="-72.58"/>
            </station>
            <station name="Northern New London CT US" value="CTZ008">
                <location latitude="41.58" longitude="-72.08"/>
            </station>
            <station name="Southern Fairfield CT US" value="CTZ009">
                <location latitude="41.19" longitude="-73.35"/>
            </station>
            <station name="Southern New Haven CT US" value="CTZ010">
                <location latitude="41.31" longitude="-72.82"/>
            </station>
            <station name="Southern Middlesex CT US" value="CTZ011">
                <location latitude="41.34" longitude="-72.46"/>
            </station>
            <station name="Southern New London CT US" value="CTZ012">
                <location latitude="41.39" longitude="-72.08"/>
            </station>
            <station name="New Castle DE US" value="DEZ001">
                <location latitude="39.57" longitude="-75.68"/>
            </station>
            <station name="Kent DE US" value="DEZ002">
                <location latitude="39.09" longitude="-75.58"/>
            </station>
            <station name="Inland Sussex DE US" value="DEZ003">
                <location latitude="38.65" longitude="-75.45"/>
            </station>
            <station name="Delaware Beaches/X E Sussex DE US" value="DEZ004">
                <location latitude="38.60" longitude="-75.10"/>
            </station>
            <station name="Inland Escambia FL US" value="FLZ001">
                <location latitude="30.87" longitude="-87.45"/>
            </station>
            <station name="Coastal Escambia FL US" value="FLZ002">
                <location latitude="30.54" longitude="-87.31"/>
            </station>
            <station name="Inland Santa Rosa FL US" value="FLZ003">
                <location latitude="30.89" longitude="-87.02"/>
            </station>
            <station name="Coastal Santa Rosa FL US" value="FLZ004">
                <location latitude="30.60" longitude="-86.92"/>
            </station>
            <station name="Inland Okaloosa FL US" value="FLZ005">
                <location latitude="30.85" longitude="-86.59"/>
            </station>
            <station name="Coastal Okaloosa FL US" value="FLZ006">
                <location latitude="30.60" longitude="-86.60"/>
            </station>
            <station name="Inland Walton FL US" value="FLZ007">
                <location latitude="30.83" longitude="-86.21"/>
            </station>
            <station name="Coastal Walton FL US" value="FLZ008">
                <location latitude="30.60" longitude="-86.13"/>
            </station>
            <station name="Holmes FL US" value="FLZ009">
                <location latitude="30.89" longitude="-85.87"/>
            </station>
            <station name="Washington FL US" value="FLZ010">
                <location latitude="30.61" longitude="-85.67"/>
            </station>
            <station name="Jackson FL US" value="FLZ011">
                <location latitude="30.80" longitude="-85.16"/>
            </station>
            <station name="Bay FL US" value="FLZ012">
                <location latitude="30.31" longitude="-85.55"/>
            </station>
            <station name="Calhoun FL US" value="FLZ013">
                <location latitude="30.42" longitude="-85.20"/>
            </station>
            <station name="Gulf FL US" value="FLZ014">
                <location latitude="29.97" longitude="-85.23"/>
            </station>
            <station name="Franklin FL US" value="FLZ015">
                <location latitude="29.92" longitude="-84.81"/>
            </station>
            <station name="Gadsden FL US" value="FLZ016">
                <location latitude="30.54" longitude="-84.63"/>
            </station>
            <station name="Leon FL US" value="FLZ017">
                <location latitude="30.46" longitude="-84.23"/>
            </station>
            <station name="Jefferson FL US" value="FLZ018">
                <location latitude="30.47" longitude="-83.86"/>
            </station>
            <station name="Madison FL US" value="FLZ019">
                <location latitude="30.44" longitude="-83.46"/>
            </station>
            <station name="Hamilton FL US" value="FLZ020">
                <location latitude="30.49" longitude="-82.86"/>
            </station>
            <station name="Suwannee FL US" value="FLZ021">
                <location latitude="30.24" longitude="-83.00"/>
            </station>
            <station name="Columbia FL US" value="FLZ022">
                <location latitude="30.17" longitude="-82.61"/>
            </station>
            <station name="Baker FL US" value="FLZ023">
                <location latitude="30.29" longitude="-82.29"/>
            </station>
            <station name="Nassau FL US" value="FLZ024">
                <location latitude="30.61" longitude="-81.88"/>
            </station>
            <station name="Duval FL US" value="FLZ025">
                <location latitude="30.33" longitude="-81.67"/>
            </station>
            <station name="Liberty FL US" value="FLZ026">
                <location latitude="30.22" longitude="-84.88"/>
            </station>
            <station name="Wakulla FL US" value="FLZ027">
                <location latitude="30.17" longitude="-84.43"/>
            </station>
            <station name="Taylor FL US" value="FLZ028">
                <location latitude="30.07" longitude="-83.59"/>
            </station>
            <station name="Lafayette FL US" value="FLZ029">
                <location latitude="29.97" longitude="-83.21"/>
            </station>
            <station name="Union FL US" value="FLZ030">
                <location latitude="30.03" longitude="-82.39"/>
            </station>
            <station name="Bradford FL US" value="FLZ031">
                <location latitude="29.96" longitude="-82.14"/>
            </station>
            <station name="Clay FL US" value="FLZ032">
                <location latitude="29.96" longitude="-81.82"/>
            </station>
            <station name="St. Johns FL US" value="FLZ033">
                <location latitude="29.88" longitude="-81.42"/>
            </station>
            <station name="Dixie FL US" value="FLZ034">
                <location latitude="29.61" longitude="-83.15"/>
            </station>
            <station name="Gilchrist FL US" value="FLZ035">
                <location latitude="29.72" longitude="-82.79"/>
            </station>
            <station name="Alachua FL US" value="FLZ036">
                <location latitude="29.63" longitude="-82.38"/>
            </station>
            <station name="Putnam FL US" value="FLZ037">
                <location latitude="29.64" longitude="-81.74"/>
            </station>
            <station name="Flagler FL US" value="FLZ038">
                <location latitude="29.46" longitude="-81.30"/>
            </station>
            <station name="Levy FL US" value="FLZ039">
                <location latitude="29.32" longitude="-82.74"/>
            </station>
            <station name="Marion FL US" value="FLZ040">
                <location latitude="29.20" longitude="-82.09"/>
            </station>
            <station name="Volusia FL US" value="FLZ041">
                <location latitude="29.03" longitude="-81.16"/>
            </station>
            <station name="Citrus FL US" value="FLZ042">
                <location latitude="28.82" longitude="-82.46"/>
            </station>
            <station name="Sumter FL US" value="FLZ043">
                <location latitude="28.69" longitude="-82.06"/>
            </station>
            <station name="Lake FL US" value="FLZ044">
                <location latitude="28.77" longitude="-81.75"/>
            </station>
            <station name="Orange FL US" value="FLZ045">
                <location latitude="28.48" longitude="-81.38"/>
            </station>
            <station name="Seminole FL US" value="FLZ046">
                <location latitude="28.70" longitude="-81.23"/>
            </station>
            <station name="Brevard FL US" value="FLZ047">
                <location latitude="28.06" longitude="-80.74"/>
            </station>
            <station name="Hernando FL US" value="FLZ048">
                <location latitude="28.55" longitude="-82.43"/>
            </station>
            <station name="Pasco FL US" value="FLZ049">
                <location latitude="28.31" longitude="-82.45"/>
            </station>
            <station name="Pinellas FL US" value="FLZ050">
                <location latitude="27.88" longitude="-82.74"/>
            </station>
            <station name="Hillsborough FL US" value="FLZ051">
                <location latitude="27.95" longitude="-82.24"/>
            </station>
            <station name="Polk FL US" value="FLZ052">
                <location latitude="27.97" longitude="-81.70"/>
            </station>
            <station name="Osceola FL US" value="FLZ053">
                <location latitude="28.06" longitude="-81.09"/>
            </station>
            <station name="Indian River FL US" value="FLZ054">
                <location latitude="27.67" longitude="-80.59"/>
            </station>
            <station name="Manatee FL US" value="FLZ055">
                <location latitude="27.52" longitude="-82.32"/>
            </station>
            <station name="Hardee FL US" value="FLZ056">
                <location latitude="27.48" longitude="-81.82"/>
            </station>
            <station name="Highlands FL US" value="FLZ057">
                <location latitude="27.36" longitude="-81.36"/>
            </station>
            <station name="Okeechobee FL US" value="FLZ058">
                <location latitude="27.41" longitude="-80.88"/>
            </station>
            <station name="St. Lucie FL US" value="FLZ059">
                <location latitude="27.37" longitude="-80.49"/>
            </station>
            <station name="Sarasota FL US" value="FLZ060">
                <location latitude="27.20" longitude="-82.38"/>
            </station>
            <station name="De Soto FL US" value="FLZ061">
                <location latitude="27.18" longitude="-81.84"/>
            </station>
            <station name="Charlotte FL US" value="FLZ062">
                <location latitude="26.90" longitude="-81.84"/>
            </station>
            <station name="Glades FL US" value="FLZ063">
                <location latitude="26.90" longitude="-81.27"/>
            </station>
            <station name="Martin FL US" value="FLZ064">
                <location latitude="27.06" longitude="-80.42"/>
            </station>
            <station name="Lee FL US" value="FLZ065">
                <location latitude="26.58" longitude="-81.77"/>
            </station>
            <station name="Hendry FL US" value="FLZ066">
                <location latitude="26.58" longitude="-81.09"/>
            </station>
            <station name="Inland Palm Beach FL US" value="FLZ067">
                <location latitude="26.54" longitude="-80.66"/>
            </station>
            <station name="Coastal Palm Beach FL US" value="FLZ068">
                <location latitude="26.66" longitude="-80.17"/>
            </station>
            <station name="Coastal Collier FL US" value="FLZ069">
                <location latitude="26.15" longitude="-81.70"/>
            </station>
            <station name="Inland Collier FL US" value="FLZ070">
                <location latitude="26.01" longitude="-81.21"/>
            </station>
            <station name="Inland Broward FL US" value="FLZ071">
                <location latitude="26.16" longitude="-80.73"/>
            </station>
            <station name="Coastal Broward FL US" value="FLZ072">
                <location latitude="26.12" longitude="-80.27"/>
            </station>
            <station name="Inland Dade FL US" value="FLZ073">
                <location latitude="25.50" longitude="-80.76"/>
            </station>
            <station name="Coastal Dade FL US" value="FLZ074">
                <location latitude="25.75" longitude="-80.38"/>
            </station>
            <station name="Mainland Monroe FL US" value="FLZ075">
                <location latitude="25.51" longitude="-81.03"/>
            </station>
            <station name="Monroe/Upper Keys FL US" value="FLZ076">
                <location latitude="25.10" longitude="-80.40"/>
            </station>
            <station name="Monroe/Middle Keys FL US" value="FLZ077">
                <location latitude="24.74" longitude="-80.99"/>
            </station>
            <station name="Monroe/Lower Keys FL US" value="FLZ078">
                <location latitude="24.70" longitude="-81.60"/>
            </station>
            <station name="Dade GA US" value="GAZ001">
                <location latitude="34.85" longitude="-85.50"/>
            </station>
            <station name="Walker GA US" value="GAZ002">
                <location latitude="34.69" longitude="-85.28"/>
            </station>
            <station name="Catoosa GA US" value="GAZ003">
                <location latitude="34.88" longitude="-85.13"/>
            </station>
            <station name="Whitfield GA US" value="GAZ004">
                <location latitude="34.77" longitude="-84.97"/>
            </station>
            <station name="Murray GA US" value="GAZ005">
                <location latitude="34.76" longitude="-84.76"/>
            </station>
            <station name="Fannin GA US" value="GAZ006">
                <location latitude="34.88" longitude="-84.28"/>
            </station>
            <station name="Gilmer GA US" value="GAZ007">
                <location latitude="34.67" longitude="-84.46"/>
            </station>
            <station name="Union GA US" value="GAZ008">
                <location latitude="34.82" longitude="-84.01"/>
            </station>
            <station name="Towns GA US" value="GAZ009">
                <location latitude="34.89" longitude="-83.73"/>
            </station>
            <station name="Rabun GA US" value="GAZ010">
                <location latitude="34.86" longitude="-83.43"/>
            </station>
            <station name="Chattooga GA US" value="GAZ011">
                <location latitude="34.42" longitude="-85.37"/>
            </station>
            <station name="Gordon GA US" value="GAZ012">
                <location latitude="34.47" longitude="-84.91"/>
            </station>
            <station name="Pickens GA US" value="GAZ013">
                <location latitude="34.44" longitude="-84.48"/>
            </station>
            <station name="Dawson GA US" value="GAZ014">
                <location latitude="34.43" longitude="-84.19"/>
            </station>
            <station name="Lumpkin GA US" value="GAZ015">
                <location latitude="34.55" longitude="-84.01"/>
            </station>
            <station name="White GA US" value="GAZ016">
                <location latitude="34.65" longitude="-83.76"/>
            </station>
            <station name="Habersham GA US" value="GAZ017">
                <location latitude="34.59" longitude="-83.53"/>
            </station>
            <station name="Stephens GA US" value="GAZ018">
                <location latitude="34.55" longitude="-83.32"/>
            </station>
            <station name="Floyd GA US" value="GAZ019">
                <location latitude="34.23" longitude="-85.20"/>
            </station>
            <station name="Bartow GA US" value="GAZ020">
                <location latitude="34.22" longitude="-84.83"/>
            </station>
            <station name="Cherokee GA US" value="GAZ021">
                <location latitude="34.22" longitude="-84.48"/>
            </station>
            <station name="Forsyth GA US" value="GAZ022">
                <location latitude="34.19" longitude="-84.15"/>
            </station>
            <station name="Hall GA US" value="GAZ023">
                <location latitude="34.28" longitude="-83.82"/>
            </station>
            <station name="Banks GA US" value="GAZ024">
                <location latitude="34.36" longitude="-83.51"/>
            </station>
            <station name="Jackson GA US" value="GAZ025">
                <location latitude="34.14" longitude="-83.57"/>
            </station>
            <station name="Franklin GA US" value="GAZ026">
                <location latitude="34.37" longitude="-83.23"/>
            </station>
            <station name="Madison GA US" value="GAZ027">
                <location latitude="34.12" longitude="-83.22"/>
            </station>
            <station name="Hart GA US" value="GAZ028">
                <location latitude="34.34" longitude="-82.97"/>
            </station>
            <station name="Elbert GA US" value="GAZ029">
                <location latitude="34.10" longitude="-82.84"/>
            </station>
            <station name="Polk GA US" value="GAZ030">
                <location latitude="33.99" longitude="-85.19"/>
            </station>
            <station name="Paulding GA US" value="GAZ031">
                <location latitude="33.91" longitude="-84.87"/>
            </station>
            <station name="Cobb GA US" value="GAZ032">
                <location latitude="33.92" longitude="-84.61"/>
            </station>
            <station name="North Fulton GA US" value="GAZ033">
                <location latitude="34.05" longitude="-84.31"/>
            </station>
            <station name="Gwinnett GA US" value="GAZ034">
                <location latitude="33.95" longitude="-84.04"/>
            </station>
            <station name="Barrow GA US" value="GAZ035">
                <location latitude="33.99" longitude="-83.74"/>
            </station>
            <station name="Clarke GA US" value="GAZ036">
                <location latitude="33.95" longitude="-83.36"/>
            </station>
            <station name="Oconee GA US" value="GAZ037">
                <location latitude="33.83" longitude="-83.43"/>
            </station>
            <station name="Oglethorpe GA US" value="GAZ038">
                <location latitude="33.86" longitude="-83.11"/>
            </station>
            <station name="Wilkes GA US" value="GAZ039">
                <location latitude="33.79" longitude="-82.74"/>
            </station>
            <station name="Lincoln GA US" value="GAZ040">
                <location latitude="33.78" longitude="-82.45"/>
            </station>
            <station name="Haralson GA US" value="GAZ041">
                <location latitude="33.79" longitude="-85.21"/>
            </station>
            <station name="Carroll GA US" value="GAZ042">
                <location latitude="33.56" longitude="-85.10"/>
            </station>
            <station name="Douglas GA US" value="GAZ043">
                <location latitude="33.67" longitude="-84.78"/>
            </station>
            <station name="South Fulton GA US" value="GAZ044">
                <location latitude="33.59" longitude="-84.60"/>
            </station>
            <station name="De Kalb GA US" value="GAZ045">
                <location latitude="33.75" longitude="-84.23"/>
            </station>
            <station name="Rockdale GA US" value="GAZ046">
                <location latitude="33.65" longitude="-84.01"/>
            </station>
            <station name="Walton GA US" value="GAZ047">
                <location latitude="33.76" longitude="-83.73"/>
            </station>
            <station name="Newton GA US" value="GAZ048">
                <location latitude="33.55" longitude="-83.86"/>
            </station>
            <station name="Morgan GA US" value="GAZ049">
                <location latitude="33.59" longitude="-83.50"/>
            </station>
            <station name="Greene GA US" value="GAZ050">
                <location latitude="33.57" longitude="-83.15"/>
            </station>
            <station name="Taliaferro GA US" value="GAZ051">
                <location latitude="33.53" longitude="-82.90"/>
            </station>
            <station name="Heard GA US" value="GAZ052">
                <location latitude="33.30" longitude="-85.13"/>
            </station>
            <station name="Coweta GA US" value="GAZ053">
                <location latitude="33.35" longitude="-84.78"/>
            </station>
            <station name="Fayette GA US" value="GAZ054">
                <location latitude="33.40" longitude="-84.50"/>
            </station>
            <station name="Clayton GA US" value="GAZ055">
                <location latitude="33.56" longitude="-84.36"/>
            </station>
            <station name="Spalding GA US" value="GAZ056">
                <location latitude="33.26" longitude="-84.31"/>
            </station>
            <station name="Henry GA US" value="GAZ057">
                <location latitude="33.43" longitude="-84.17"/>
            </station>
            <station name="Butts GA US" value="GAZ058">
                <location latitude="33.28" longitude="-83.94"/>
            </station>
            <station name="Jasper GA US" value="GAZ059">
                <location latitude="33.30" longitude="-83.69"/>
            </station>
            <station name="Putnam GA US" value="GAZ060">
                <location latitude="33.32" longitude="-83.36"/>
            </station>
            <station name="Hancock GA US" value="GAZ061">
                <location latitude="33.28" longitude="-82.99"/>
            </station>
            <station name="Warren GA US" value="GAZ062">
                <location latitude="33.41" longitude="-82.70"/>
            </station>
            <station name="McDuffie GA US" value="GAZ063">
                <location latitude="33.48" longitude="-82.49"/>
            </station>
            <station name="Columbia GA US" value="GAZ064">
                <location latitude="33.55" longitude="-82.28"/>
            </station>
            <station name="Richmond GA US" value="GAZ065">
                <location latitude="33.35" longitude="-82.09"/>
            </station>
            <station name="Troup GA US" value="GAZ066">
                <location latitude="33.02" longitude="-85.03"/>
            </station>
            <station name="Meriwether GA US" value="GAZ067">
                <location latitude="33.03" longitude="-84.70"/>
            </station>
            <station name="Pike GA US" value="GAZ068">
                <location latitude="33.05" longitude="-84.38"/>
            </station>
            <station name="Upson GA US" value="GAZ069">
                <location latitude="32.88" longitude="-84.29"/>
            </station>
            <station name="Lamar GA US" value="GAZ070">
                <location latitude="33.07" longitude="-84.15"/>
            </station>
            <station name="Monroe GA US" value="GAZ071">
                <location latitude="33.01" longitude="-83.92"/>
            </station>
            <station name="Jones GA US" value="GAZ072">
                <location latitude="33.03" longitude="-83.55"/>
            </station>
            <station name="Baldwin GA US" value="GAZ073">
                <location latitude="33.05" longitude="-83.26"/>
            </station>
            <station name="Washington GA US" value="GAZ074">
                <location latitude="32.97" longitude="-82.84"/>
            </station>
            <station name="Glascock GA US" value="GAZ075">
                <location latitude="33.22" longitude="-82.63"/>
            </station>
            <station name="Jefferson GA US" value="GAZ076">
                <location latitude="33.05" longitude="-82.44"/>
            </station>
            <station name="Burke GA US" value="GAZ077">
                <location latitude="33.08" longitude="-82.07"/>
            </station>
            <station name="Harris GA US" value="GAZ078">
                <location latitude="32.71" longitude="-84.92"/>
            </station>
            <station name="Talbot GA US" value="GAZ079">
                <location latitude="32.69" longitude="-84.55"/>
            </station>
            <station name="Taylor GA US" value="GAZ080">
                <location latitude="32.55" longitude="-84.25"/>
            </station>
            <station name="Crawford GA US" value="GAZ081">
                <location latitude="32.73" longitude="-84.00"/>
            </station>
            <station name="Bibb GA US" value="GAZ082">
                <location latitude="32.82" longitude="-83.71"/>
            </station>
            <station name="Twiggs GA US" value="GAZ083">
                <location latitude="32.68" longitude="-83.44"/>
            </station>
            <station name="Wilkinson GA US" value="GAZ084">
                <location latitude="32.80" longitude="-83.19"/>
            </station>
            <station name="Johnson GA US" value="GAZ085">
                <location latitude="32.70" longitude="-82.65"/>
            </station>
            <station name="Emanuel GA US" value="GAZ086">
                <location latitude="32.60" longitude="-82.30"/>
            </station>
            <station name="Jenkins GA US" value="GAZ087">
                <location latitude="32.79" longitude="-81.97"/>
            </station>
            <station name="Screven GA US" value="GAZ088">
                <location latitude="32.74" longitude="-81.62"/>
            </station>
            <station name="Muscogee GA US" value="GAZ089">
                <location latitude="32.49" longitude="-84.86"/>
            </station>
            <station name="Chattahoochee GA US" value="GAZ090">
                <location latitude="32.32" longitude="-84.75"/>
            </station>
            <station name="Marion GA US" value="GAZ091">
                <location latitude="32.37" longitude="-84.55"/>
            </station>
            <station name="Schley GA US" value="GAZ092">
                <location latitude="32.26" longitude="-84.34"/>
            </station>
            <station name="Macon GA US" value="GAZ093">
                <location latitude="32.33" longitude="-84.07"/>
            </station>
            <station name="Peach GA US" value="GAZ094">
                <location latitude="32.57" longitude="-83.82"/>
            </station>
            <station name="Houston GA US" value="GAZ095">
                <location latitude="32.43" longitude="-83.69"/>
            </station>
            <station name="Bleckley GA US" value="GAZ096">
                <location latitude="32.43" longitude="-83.36"/>
            </station>
            <station name="Laurens GA US" value="GAZ097">
                <location latitude="32.48" longitude="-82.95"/>
            </station>
            <station name="Treutlen GA US" value="GAZ098">
                <location latitude="32.39" longitude="-82.58"/>
            </station>
            <station name="Candler GA US" value="GAZ099">
                <location latitude="32.41" longitude="-82.08"/>
            </station>
            <station name="Bulloch GA US" value="GAZ100">
                <location latitude="32.39" longitude="-81.76"/>
            </station>
            <station name="Effingham GA US" value="GAZ101">
                <location latitude="32.37" longitude="-81.31"/>
            </station>
            <station name="Stewart GA US" value="GAZ102">
                <location latitude="32.05" longitude="-84.84"/>
            </station>
            <station name="Webster GA US" value="GAZ103">
                <location latitude="32.01" longitude="-84.55"/>
            </station>
            <station name="Sumter GA US" value="GAZ104">
                <location latitude="32.01" longitude="-84.21"/>
            </station>
            <station name="Dooly GA US" value="GAZ105">
                <location latitude="32.14" longitude="-83.82"/>
            </station>
            <station name="Crisp GA US" value="GAZ106">
                <location latitude="31.91" longitude="-83.78"/>
            </station>
            <station name="Pulaski GA US" value="GAZ107">
                <location latitude="32.24" longitude="-83.53"/>
            </station>
            <station name="Wilcox GA US" value="GAZ108">
                <location latitude="31.96" longitude="-83.46"/>
            </station>
            <station name="Dodge GA US" value="GAZ109">
                <location latitude="32.14" longitude="-83.17"/>
            </station>
            <station name="Telfair GA US" value="GAZ110">
                <location latitude="31.91" longitude="-82.97"/>
            </station>
            <station name="Wheeler GA US" value="GAZ111">
                <location latitude="32.11" longitude="-82.74"/>
            </station>
            <station name="Montgomery GA US" value="GAZ112">
                <location latitude="32.20" longitude="-82.52"/>
            </station>
            <station name="Toombs GA US" value="GAZ113">
                <location latitude="32.10" longitude="-82.34"/>
            </station>
            <station name="Tattnall GA US" value="GAZ114">
                <location latitude="32.03" longitude="-82.07"/>
            </station>
            <station name="Evans GA US" value="GAZ115">
                <location latitude="32.15" longitude="-81.89"/>
            </station>
            <station name="Inland Bryan GA US" value="GAZ116">
                <location latitude="32.08" longitude="-81.50"/>
            </station>
            <station name="Coastal Bryan GA US" value="GAZ117">
                <location latitude="31.79" longitude="-81.21"/>
            </station>
            <station name="Inland Chatham GA US" value="GAZ118">
                <location latitude="32.10" longitude="-81.26"/>
            </station>
            <station name="Coastal Chatham GA US" value="GAZ119">
                <location latitude="31.95" longitude="-81.05"/>
            </station>
            <station name="Quitman GA US" value="GAZ120">
                <location latitude="31.85" longitude="-85.01"/>
            </station>
            <station name="Clay GA US" value="GAZ121">
                <location latitude="31.64" longitude="-85.00"/>
            </station>
            <station name="Randolph GA US" value="GAZ122">
                <location latitude="31.74" longitude="-84.75"/>
            </station>
            <station name="Calhoun GA US" value="GAZ123">
                <location latitude="31.51" longitude="-84.64"/>
            </station>
            <station name="Terrell GA US" value="GAZ124">
                <location latitude="31.78" longitude="-84.45"/>
            </station>
            <station name="Dougherty GA US" value="GAZ125">
                <location latitude="31.49" longitude="-84.27"/>
            </station>
            <station name="Lee GA US" value="GAZ126">
                <location latitude="31.72" longitude="-84.17"/>
            </station>
            <station name="Worth GA US" value="GAZ127">
                <location latitude="31.47" longitude="-83.87"/>
            </station>
            <station name="Turner GA US" value="GAZ128">
                <location latitude="31.70" longitude="-83.66"/>
            </station>
            <station name="Tift GA US" value="GAZ129">
                <location latitude="31.44" longitude="-83.55"/>
            </station>
            <station name="Ben Hill GA US" value="GAZ130">
                <location latitude="31.75" longitude="-83.24"/>
            </station>
            <station name="Irwin GA US" value="GAZ131">
                <location latitude="31.54" longitude="-83.25"/>
            </station>
            <station name="Coffee GA US" value="GAZ132">
                <location latitude="31.52" longitude="-82.89"/>
            </station>
            <station name="Jeff Davis GA US" value="GAZ133">
                <location latitude="31.78" longitude="-82.68"/>
            </station>
            <station name="Bacon GA US" value="GAZ134">
                <location latitude="31.56" longitude="-82.50"/>
            </station>
            <station name="Appling GA US" value="GAZ135">
                <location latitude="31.75" longitude="-82.31"/>
            </station>
            <station name="Wayne GA US" value="GAZ136">
                <location latitude="31.56" longitude="-81.96"/>
            </station>
            <station name="Long GA US" value="GAZ137">
                <location latitude="31.75" longitude="-81.77"/>
            </station>
            <station name="Inland Liberty GA US" value="GAZ138">
                <location latitude="31.85" longitude="-81.53"/>
            </station>
            <station name="Coastal Liberty GA US" value="GAZ139">
                <location latitude="31.66" longitude="-81.20"/>
            </station>
            <station name="Inland McIntosh GA US" value="GAZ140">
                <location latitude="31.56" longitude="-81.52"/>
            </station>
            <station name="Coastal McIntosh GA US" value="GAZ141">
                <location latitude="31.47" longitude="-81.32"/>
            </station>
            <station name="Early GA US" value="GAZ142">
                <location latitude="31.35" longitude="-84.93"/>
            </station>
            <station name="Miller GA US" value="GAZ143">
                <location latitude="31.14" longitude="-84.75"/>
            </station>
            <station name="Baker GA US" value="GAZ144">
                <location latitude="31.32" longitude="-84.47"/>
            </station>
            <station name="Mitchell GA US" value="GAZ145">
                <location latitude="31.20" longitude="-84.19"/>
            </station>
            <station name="Colquitt GA US" value="GAZ146">
                <location latitude="31.16" longitude="-83.80"/>
            </station>
            <station name="Cook GA US" value="GAZ147">
                <location latitude="31.15" longitude="-83.44"/>
            </station>
            <station name="Berrien GA US" value="GAZ148">
                <location latitude="31.29" longitude="-83.24"/>
            </station>
            <station name="Atkinson GA US" value="GAZ149">
                <location latitude="31.25" longitude="-82.90"/>
            </station>
            <station name="Ware GA US" value="GAZ150">
                <location latitude="31.18" longitude="-82.51"/>
            </station>
            <station name="Pierce GA US" value="GAZ151">
                <location latitude="31.37" longitude="-82.24"/>
            </station>
            <station name="Brantley GA US" value="GAZ152">
                <location latitude="31.18" longitude="-81.99"/>
            </station>
            <station name="Inland Glynn GA US" value="GAZ153">
                <location latitude="31.27" longitude="-81.66"/>
            </station>
            <station name="Coastal Glynn GA US" value="GAZ154">
                <location latitude="31.18" longitude="-81.48"/>
            </station>
            <station name="Seminole GA US" value="GAZ155">
                <location latitude="30.91" longitude="-84.84"/>
            </station>
            <station name="Decatur GA US" value="GAZ156">
                <location latitude="30.90" longitude="-84.58"/>
            </station>
            <station name="Grady GA US" value="GAZ157">
                <location latitude="30.87" longitude="-84.25"/>
            </station>
            <station name="Thomas GA US" value="GAZ158">
                <location latitude="30.88" longitude="-83.92"/>
            </station>
            <station name="Brooks GA US" value="GAZ159">
                <location latitude="30.85" longitude="-83.62"/>
            </station>
            <station name="Lowndes GA US" value="GAZ160">
                <location latitude="30.82" longitude="-83.24"/>
            </station>
            <station name="Lanier GA US" value="GAZ161">
                <location latitude="31.02" longitude="-83.03"/>
            </station>
            <station name="Echols GA US" value="GAZ162">
                <location latitude="30.71" longitude="-82.90"/>
            </station>
            <station name="Clinch GA US" value="GAZ163">
                <location latitude="30.95" longitude="-82.75"/>
            </station>
            <station name="Charlton GA US" value="GAZ164">
                <location latitude="30.88" longitude="-82.14"/>
            </station>
            <station name="Inland Camden GA US" value="GAZ165">
                <location latitude="30.95" longitude="-81.79"/>
            </station>
            <station name="Coastal Camden GA US" value="GAZ166">
                <location latitude="30.87" longitude="-81.54"/>
            </station>
            <station name="Ford IL US" value="ILZ039">
                <location latitude="40.49" longitude="-88.26"/>
            </station>
            <station name="Piatt IL US" value="ILZ044">
                <location latitude="39.99" longitude="-88.59"/>
            </station>
            <station name="Champaign IL US" value="ILZ045">
                <location latitude="40.13" longitude="-88.21"/>
            </station>
            <station name="Vermillion IL US" value="ILZ046">
                <location latitude="40.14" longitude="-87.74"/>
            </station>
            <station name="Moultrie IL US" value="ILZ054">
                <location latitude="39.65" longitude="-88.61"/>
            </station>
            <station name="Douglas IL US" value="ILZ055">
                <location latitude="39.77" longitude="-88.21"/>
            </station>
            <station name="Coles IL US" value="ILZ056">
                <location latitude="39.52" longitude="-88.21"/>
            </station>
            <station name="Edgar IL US" value="ILZ057">
                <location latitude="39.66" longitude="-87.75"/>
            </station>
            <station name="Shelby IL US" value="ILZ061">
                <location latitude="39.40" longitude="-88.83"/>
            </station>
            <station name="Cumberland IL US" value="ILZ062">
                <location latitude="39.26" longitude="-88.23"/>
            </station>
            <station name="Clark IL US" value="ILZ063">
                <location latitude="39.33" longitude="-87.80"/>
            </station>
            <station name="Effingham IL US" value="ILZ066">
                <location latitude="39.05" longitude="-88.58"/>
            </station>
            <station name="Jasper IL US" value="ILZ067">
                <location latitude="38.99" longitude="-88.13"/>
            </station>
            <station name="Crawford IL US" value="ILZ068">
                <location latitude="39.00" longitude="-87.76"/>
            </station>
            <station name="Marion IL US" value="ILZ070">
                <location latitude="38.64" longitude="-88.92"/>
            </station>
            <station name="Clay IL US" value="ILZ071">
                <location latitude="38.75" longitude="-88.49"/>
            </station>
            <station name="Richland IL US" value="ILZ072">
                <location latitude="38.72" longitude="-88.08"/>
            </station>
            <station name="Lawrence IL US" value="ILZ073">
                <location latitude="38.72" longitude="-87.75"/>
            </station>
            <station name="Jefferson IL US" value="ILZ075">
                <location latitude="38.30" longitude="-88.92"/>
            </station>
            <station name="Wayne IL US" value="ILZ076">
                <location latitude="38.42" longitude="-88.40"/>
            </station>
            <station name="Edwards IL US" value="ILZ077">
                <location latitude="38.43" longitude="-88.04"/>
            </station>
            <station name="Wabash IL US" value="ILZ078">
                <location latitude="38.46" longitude="-87.82"/>
            </station>
            <station name="Hamilton IL US" value="ILZ082">
                <location latitude="38.09" longitude="-88.54"/>
            </station>
            <station name="White IL US" value="ILZ083">
                <location latitude="38.09" longitude="-88.17"/>
            </station>
            <station name="Jackson IL US" value="ILZ084">
                <location latitude="37.78" longitude="-89.34"/>
            </station>
            <station name="Saline IL US" value="ILZ086">
                <location latitude="37.76" longitude="-88.53"/>
            </station>
            <station name="Gallatin IL US" value="ILZ087">
                <location latitude="37.76" longitude="-88.25"/>
            </station>
            <station name="Union IL US" value="ILZ088">
                <location latitude="37.48" longitude="-89.23"/>
            </station>
            <station name="Johnson IL US" value="ILZ089">
                <location latitude="37.48" longitude="-88.87"/>
            </station>
            <station name="Pope IL US" value="ILZ090">
                <location latitude="37.46" longitude="-88.56"/>
            </station>
            <station name="Hardin IL US" value="ILZ091">
                <location latitude="37.53" longitude="-88.27"/>
            </station>
            <station name="Alexander IL US" value="ILZ092">
                <location latitude="37.24" longitude="-89.33"/>
            </station>
            <station name="Pulaski IL US" value="ILZ093">
                <location latitude="37.23" longitude="-89.15"/>
            </station>
            <station name="Massac IL US" value="ILZ094">
                <location latitude="37.26" longitude="-88.70"/>
            </station>
            <station name="De Kalb IN US" value="INZ009">
                <location latitude="41.40" longitude="-85.01"/>
            </station>
            <station name="Pulaski IN US" value="INZ013">
                <location latitude="41.03" longitude="-86.65"/>
            </station>
            <station name="Marshall IN US" value="INZ014">
                <location latitude="41.31" longitude="-86.26"/>
            </station>
            <station name="Fulton IN US" value="INZ015">
                <location latitude="41.03" longitude="-86.30"/>
            </station>
            <station name="Kosciusko IN US" value="INZ016">
                <location latitude="41.25" longitude="-85.86"/>
            </station>
            <station name="Whitley IN US" value="INZ017">
                <location latitude="41.14" longitude="-85.49"/>
            </station>
            <station name="Allen IN US" value="INZ018">
                <location latitude="41.10" longitude="-85.09"/>
            </station>
            <station name="Benson IN US" value="INZ019">
                <location latitude="40.60" longitude="-87.30"/>
            </station>
            <station name="White IN US" value="INZ020">
                <location latitude="40.73" longitude="-86.90"/>
            </station>
            <station name="Carroll IN US" value="INZ021">
                <location latitude="40.57" longitude="-86.54"/>
            </station>
            <station name="Cass IN US" value="INZ022">
                <location latitude="40.78" longitude="-86.32"/>
            </station>
            <station name="Miami IN US" value="INZ023">
                <location latitude="40.78" longitude="-86.05"/>
            </station>
            <station name="Wabash IN US" value="INZ024">
                <location latitude="40.84" longitude="-85.80"/>
            </station>
            <station name="Huntington IN US" value="INZ025">
                <location latitude="40.84" longitude="-85.49"/>
            </station>
            <station name="Wells IN US" value="INZ026">
                <location latitude="40.74" longitude="-85.22"/>
            </station>
            <station name="Adams IN US" value="INZ027">
                <location latitude="40.75" longitude="-84.96"/>
            </station>
            <station name="Warren IN US" value="INZ028">
                <location latitude="40.35" longitude="-87.39"/>
            </station>
            <station name="Tippecanoe IN US" value="INZ029">
                <location latitude="40.39" longitude="-86.88"/>
            </station>
            <station name="Clinton IN US" value="INZ030">
                <location latitude="40.30" longitude="-86.47"/>
            </station>
            <station name="Howard IN US" value="INZ031">
                <location latitude="40.48" longitude="-86.08"/>
            </station>
            <station name="Grant IN US" value="INZ032">
                <location latitude="40.52" longitude="-85.66"/>
            </station>
            <station name="Blackford IN US" value="INZ033">
                <location latitude="40.47" longitude="-85.33"/>
            </station>
            <station name="Jay IN US" value="INZ034">
                <location latitude="40.45" longitude="-85.03"/>
            </station>
            <station name="Fountain IN US" value="INZ035">
                <location latitude="40.11" longitude="-87.23"/>
            </station>
            <station name="Montgomery IN US" value="INZ036">
                <location latitude="40.05" longitude="-86.87"/>
            </station>
            <station name="Boone IN US" value="INZ037">
                <location latitude="40.05" longitude="-86.46"/>
            </station>
            <station name="Tipton IN US" value="INZ038">
                <location latitude="40.30" longitude="-86.04"/>
            </station>
            <station name="Hamilton IN US" value="INZ039">
                <location latitude="40.06" longitude="-86.04"/>
            </station>
            <station name="Madison IN US" value="INZ040">
                <location latitude="40.19" longitude="-85.73"/>
            </station>
            <station name="Delaware IN US" value="INZ041">
                <location latitude="40.22" longitude="-85.42"/>
            </station>
            <station name="Randolph IN US" value="INZ042">
                <location latitude="40.16" longitude="-85.01"/>
            </station>
            <station name="Vermillion IN US" value="INZ043">
                <location latitude="39.85" longitude="-87.46"/>
            </station>
            <station name="Parke IN US" value="INZ044">
                <location latitude="39.77" longitude="-87.20"/>
            </station>
            <station name="Putnam IN US" value="INZ045">
                <location latitude="39.68" longitude="-86.84"/>
            </station>
            <station name="Hendricks IN US" value="INZ046">
                <location latitude="39.76" longitude="-86.49"/>
            </station>
            <station name="Marion IN US" value="INZ047">
                <location latitude="39.78" longitude="-86.13"/>
            </station>
            <station name="Hancock IN US" value="INZ048">
                <location latitude="39.81" longitude="-85.77"/>
            </station>
            <station name="Henry IN US" value="INZ049">
                <location latitude="39.91" longitude="-85.38"/>
            </station>
            <station name="Wayne IN US" value="INZ050">
                <location latitude="39.88" longitude="-85.04"/>
            </station>
            <station name="Vigo IN US" value="INZ051">
                <location latitude="39.43" longitude="-87.39"/>
            </station>
            <station name="Clay IN US" value="INZ052">
                <location latitude="39.41" longitude="-87.11"/>
            </station>
            <station name="Owen IN US" value="INZ053">
                <location latitude="39.31" longitude="-86.80"/>
            </station>
            <station name="Morgan IN US" value="INZ054">
                <location latitude="39.46" longitude="-86.42"/>
            </station>
            <station name="Johnson IN US" value="INZ055">
                <location latitude="39.50" longitude="-86.08"/>
            </station>
            <station name="Shelby IN US" value="INZ056">
                <location latitude="39.52" longitude="-85.76"/>
            </station>
            <station name="Rush IN US" value="INZ057">
                <location latitude="39.60" longitude="-85.46"/>
            </station>
            <station name="Fayette IN US" value="INZ058">
                <location latitude="39.60" longitude="-85.16"/>
            </station>
            <station name="Union IN US" value="INZ059">
                <location latitude="39.62" longitude="-84.93"/>
            </station>
            <station name="Sullivan IN US" value="INZ060">
                <location latitude="39.09" longitude="-87.40"/>
            </station>
            <station name="Greene IN US" value="INZ061">
                <location latitude="39.02" longitude="-86.97"/>
            </station>
            <station name="Monroe IN US" value="INZ062">
                <location latitude="39.15" longitude="-86.50"/>
            </station>
            <station name="Brown IN US" value="INZ063">
                <location latitude="39.20" longitude="-86.21"/>
            </station>
            <station name="Bartholomew IN US" value="INZ064">
                <location latitude="39.20" longitude="-85.89"/>
            </station>
            <station name="Decatur IN US" value="INZ065">
                <location latitude="39.31" longitude="-85.48"/>
            </station>
            <station name="Franklin IN US" value="INZ066">
                <location latitude="39.41" longitude="-85.05"/>
            </station>
            <station name="Knox IN US" value="INZ067">
                <location latitude="38.73" longitude="-87.38"/>
            </station>
            <station name="Daviess IN US" value="INZ068">
                <location latitude="38.71" longitude="-87.07"/>
            </station>
            <station name="Martin IN US" value="INZ069">
                <location latitude="38.71" longitude="-86.78"/>
            </station>
            <station name="Lawrence IN US" value="INZ070">
                <location latitude="38.84" longitude="-86.48"/>
            </station>
            <station name="Jackson IN US" value="INZ071">
                <location latitude="38.91" longitude="-86.03"/>
            </station>
            <station name="Jennings IN US" value="INZ072">
                <location latitude="39.00" longitude="-85.61"/>
            </station>
            <station name="Ripley IN US" value="INZ073">
                <location latitude="39.09" longitude="-85.27"/>
            </station>
            <station name="Dearborn IN US" value="INZ074">
                <location latitude="39.15" longitude="-84.98"/>
            </station>
            <station name="Ohio IN US" value="INZ075">
                <location latitude="38.95" longitude="-84.94"/>
            </station>
            <station name="Orange IN US" value="INZ076">
                <location latitude="38.54" longitude="-86.48"/>
            </station>
            <station name="Washington IN US" value="INZ077">
                <location latitude="38.61" longitude="-86.09"/>
            </station>
            <station name="Scott IN US" value="INZ078">
                <location latitude="38.69" longitude="-85.75"/>
            </station>
            <station name="Jefferson IN US" value="INZ079">
                <location latitude="38.82" longitude="-85.42"/>
            </station>
            <station name="Switzerland IN US" value="INZ080">
                <location latitude="38.82" longitude="-85.04"/>
            </station>
            <station name="Gibson IN US" value="INZ081">
                <location latitude="38.33" longitude="-87.55"/>
            </station>
            <station name="Pike IN US" value="INZ082">
                <location latitude="38.39" longitude="-87.19"/>
            </station>
            <station name="Dubois IN US" value="INZ083">
                <location latitude="38.37" longitude="-86.86"/>
            </station>
            <station name="Crawford IN US" value="INZ084">
                <location latitude="38.29" longitude="-86.43"/>
            </station>
            <station name="Posey IN US" value="INZ085">
                <location latitude="38.04" longitude="-87.83"/>
            </station>
            <station name="Vanderburgh IN US" value="INZ086">
                <location latitude="38.06" longitude="-87.58"/>
            </station>
            <station name="Warrick IN US" value="INZ087">
                <location latitude="38.10" longitude="-87.29"/>
            </station>
            <station name="Spencer IN US" value="INZ088">
                <location latitude="38.03" longitude="-86.97"/>
            </station>
            <station name="Perry IN US" value="INZ089">
                <location latitude="38.10" longitude="-86.63"/>
            </station>
            <station name="Harrison IN US" value="INZ090">
                <location latitude="38.18" longitude="-86.10"/>
            </station>
            <station name="Floyd IN US" value="INZ091">
                <location latitude="38.32" longitude="-85.88"/>
            </station>
            <station name="Clark IN US" value="INZ092">
                <location latitude="38.49" longitude="-85.68"/>
            </station>
            <station name="Fulton KY US" value="KYZ001">
                <location latitude="36.50" longitude="-89.20"/>
            </station>
            <station name="Hickman KY US" value="KYZ002">
                <location latitude="36.68" longitude="-88.90"/>
            </station>
            <station name="Carlisle KY US" value="KYZ003">
                <location latitude="36.84" longitude="-88.93"/>
            </station>
            <station name="Ballard KY US" value="KYZ004">
                <location latitude="37.05" longitude="-88.98"/>
            </station>
            <station name="McCracken KY US" value="KYZ005">
                <location latitude="37.02" longitude="-88.67"/>
            </station>
            <station name="Graves KY US" value="KYZ006">
                <location latitude="36.73" longitude="-88.65"/>
            </station>
            <station name="Livingston KY US" value="KYZ007">
                <location latitude="37.20" longitude="-88.34"/>
            </station>
            <station name="Marshall KY US" value="KYZ008">
                <location latitude="36.88" longitude="-88.34"/>
            </station>
            <station name="Calloway KY US" value="KYZ009">
                <location latitude="36.61" longitude="-88.29"/>
            </station>
            <station name="Crittenden KY US" value="KYZ010">
                <location latitude="37.34" longitude="-88.07"/>
            </station>
            <station name="Lyon KY US" value="KYZ011">
                <location latitude="37.02" longitude="-88.07"/>
            </station>
            <station name="Trigg KY US" value="KYZ012">
                <location latitude="36.78" longitude="-87.86"/>
            </station>
            <station name="Caldwell KY US" value="KYZ013">
                <location latitude="37.14" longitude="-87.86"/>
            </station>
            <station name="Union KY US" value="KYZ014">
                <location latitude="37.64" longitude="-87.93"/>
            </station>
            <station name="Webster KY US" value="KYZ015">
                <location latitude="37.50" longitude="-87.71"/>
            </station>
            <station name="Hopkins KY US" value="KYZ016">
                <location latitude="37.30" longitude="-87.55"/>
            </station>
            <station name="Christian KY US" value="KYZ017">
                <location latitude="36.91" longitude="-87.49"/>
            </station>
            <station name="Henderson KY US" value="KYZ018">
                <location latitude="37.75" longitude="-87.52"/>
            </station>
            <station name="Daviess KY US" value="KYZ019">
                <location latitude="37.68" longitude="-87.11"/>
            </station>
            <station name="McClean KY US" value="KYZ020">
                <location latitude="37.50" longitude="-87.24"/>
            </station>
            <station name="Muhlenberg KY US" value="KYZ021">
                <location latitude="37.20" longitude="-87.18"/>
            </station>
            <station name="Todd KY US" value="KYZ022">
                <location latitude="36.82" longitude="-87.15"/>
            </station>
            <station name="Hancock KY US" value="KYZ023">
                <location latitude="37.84" longitude="-86.78"/>
            </station>
            <station name="Breckinridge KY US" value="KYZ024">
                <location latitude="37.78" longitude="-86.42"/>
            </station>
            <station name="Meade KY US" value="KYZ025">
                <location latitude="37.93" longitude="-86.15"/>
            </station>
            <station name="Ohio KY US" value="KYZ026">
                <location latitude="37.46" longitude="-86.85"/>
            </station>
            <station name="Grayson KY US" value="KYZ027">
                <location latitude="37.45" longitude="-86.36"/>
            </station>
            <station name="Hardin KY US" value="KYZ028">
                <location latitude="37.68" longitude="-85.97"/>
            </station>
            <station name="Bullitt KY US" value="KYZ029">
                <location latitude="37.96" longitude="-85.68"/>
            </station>
            <station name="Jefferson KY US" value="KYZ030">
                <location latitude="38.20" longitude="-85.62"/>
            </station>
            <station name="Oldham KY US" value="KYZ031">
                <location latitude="38.37" longitude="-85.43"/>
            </station>
            <station name="Trimble KY US" value="KYZ032">
                <location latitude="38.59" longitude="-85.33"/>
            </station>
            <station name="Henry KY US" value="KYZ033">
                <location latitude="38.43" longitude="-85.12"/>
            </station>
            <station name="Shelby KY US" value="KYZ034">
                <location latitude="38.20" longitude="-85.20"/>
            </station>
            <station name="Franklin KY US" value="KYZ035">
                <location latitude="38.23" longitude="-84.87"/>
            </station>
            <station name="Scott KY US" value="KYZ036">
                <location latitude="38.29" longitude="-84.60"/>
            </station>
            <station name="Harrison KY US" value="KYZ037">
                <location latitude="38.43" longitude="-84.33"/>
            </station>
            <station name="Spencer KY US" value="KYZ038">
                <location latitude="38.02" longitude="-85.33"/>
            </station>
            <station name="Anderson KY US" value="KYZ039">
                <location latitude="38.02" longitude="-84.99"/>
            </station>
            <station name="Woodford KY US" value="KYZ040">
                <location latitude="38.05" longitude="-84.74"/>
            </station>
            <station name="Fayette KY US" value="KYZ041">
                <location latitude="38.05" longitude="-84.47"/>
            </station>
            <station name="Bourbon KY US" value="KYZ042">
                <location latitude="38.21" longitude="-84.21"/>
            </station>
            <station name="Nicholas KY US" value="KYZ043">
                <location latitude="38.32" longitude="-83.98"/>
            </station>
            <station name="Fleming KY US" value="KYZ044">
                <location latitude="38.37" longitude="-83.67"/>
            </station>
            <station name="Nelson KY US" value="KYZ045">
                <location latitude="37.80" longitude="-85.49"/>
            </station>
            <station name="Washington KY US" value="KYZ046">
                <location latitude="37.75" longitude="-85.16"/>
            </station>
            <station name="Mercer KY US" value="KYZ047">
                <location latitude="37.80" longitude="-84.87"/>
            </station>
            <station name="Jessamine KY US" value="KYZ048">
                <location latitude="37.87" longitude="-84.58"/>
            </station>
            <station name="Clark KY US" value="KYZ049">
                <location latitude="37.96" longitude="-84.14"/>
            </station>
            <station name="Montgomery KY US" value="KYZ050">
                <location latitude="38.04" longitude="-83.91"/>
            </station>
            <station name="Bath KY US" value="KYZ051">
                <location latitude="38.14" longitude="-83.73"/>
            </station>
            <station name="Rowan KY US" value="KYZ052">
                <location latitude="38.20" longitude="-83.42"/>
            </station>
            <station name="Larue KY US" value="KYZ053">
                <location latitude="37.54" longitude="-85.70"/>
            </station>
            <station name="Marion KY US" value="KYZ054">
                <location latitude="37.55" longitude="-85.32"/>
            </station>
            <station name="Boyle KY US" value="KYZ055">
                <location latitude="37.62" longitude="-84.88"/>
            </station>
            <station name="Garrard KY US" value="KYZ056">
                <location latitude="37.64" longitude="-84.53"/>
            </station>
            <station name="Madison KY US" value="KYZ057">
                <location latitude="37.73" longitude="-84.25"/>
            </station>
            <station name="Estill KY US" value="KYZ058">
                <location latitude="37.68" longitude="-83.96"/>
            </station>
            <station name="Powell KY US" value="KYZ059">
                <location latitude="37.82" longitude="-83.79"/>
            </station>
            <station name="Menifee KY US" value="KYZ060">
                <location latitude="37.93" longitude="-83.59"/>
            </station>
            <station name="Butler KY US" value="KYZ061">
                <location latitude="37.21" longitude="-86.68"/>
            </station>
            <station name="Edmonson KY US" value="KYZ062">
                <location latitude="37.23" longitude="-86.24"/>
            </station>
            <station name="Hart KY US" value="KYZ063">
                <location latitude="37.30" longitude="-85.88"/>
            </station>
            <station name="Green KY US" value="KYZ064">
                <location latitude="37.27" longitude="-85.56"/>
            </station>
            <station name="Taylor KY US" value="KYZ065">
                <location latitude="37.36" longitude="-85.32"/>
            </station>
            <station name="Casey KY US" value="KYZ066">
                <location latitude="37.30" longitude="-84.95"/>
            </station>
            <station name="Lincoln KY US" value="KYZ067">
                <location latitude="37.46" longitude="-84.65"/>
            </station>
            <station name="Rockcastle KY US" value="KYZ068">
                <location latitude="37.37" longitude="-84.31"/>
            </station>
            <station name="Jackson KY US" value="KYZ069">
                <location latitude="37.43" longitude="-84.00"/>
            </station>
            <station name="Logan KY US" value="KYZ070">
                <location latitude="36.84" longitude="-86.86"/>
            </station>
            <station name="Warren KY US" value="KYZ071">
                <location latitude="36.98" longitude="-86.43"/>
            </station>
            <station name="Simpson KY US" value="KYZ072">
                <location latitude="36.73" longitude="-86.59"/>
            </station>
            <station name="Allen KY US" value="KYZ073">
                <location latitude="36.75" longitude="-86.18"/>
            </station>
            <station name="Barren KY US" value="KYZ074">
                <location latitude="37.00" longitude="-85.93"/>
            </station>
            <station name="Monroe KY US" value="KYZ075">
                <location latitude="36.71" longitude="-85.71"/>
            </station>
            <station name="Metcalf KY US" value="KYZ076">
                <location latitude="37.00" longitude="-85.62"/>
            </station>
            <station name="Adair KY US" value="KYZ077">
                <location latitude="37.07" longitude="-85.30"/>
            </station>
            <station name="Russell KY US" value="KYZ078">
                <location latitude="36.98" longitude="-85.05"/>
            </station>
            <station name="Pulaski KY US" value="KYZ079">
                <location latitude="37.13" longitude="-84.55"/>
            </station>
            <station name="Laurel KY US" value="KYZ080">
                <location latitude="37.12" longitude="-84.11"/>
            </station>
            <station name="Cumberland KY US" value="KYZ081">
                <location latitude="36.80" longitude="-85.38"/>
            </station>
            <station name="Clinton KY US" value="KYZ082">
                <location latitude="36.73" longitude="-85.14"/>
            </station>
            <station name="Wayne KY US" value="KYZ083">
                <location latitude="36.80" longitude="-84.83"/>
            </station>
            <station name="McCreary KY US" value="KYZ084">
                <location latitude="36.73" longitude="-84.49"/>
            </station>
            <station name="Whitley KY US" value="KYZ085">
                <location latitude="36.75" longitude="-84.14"/>
            </station>
            <station name="Knox KY US" value="KYZ086">
                <location latitude="36.89" longitude="-83.86"/>
            </station>
            <station name="Bell KY US" value="KYZ087">
                <location latitude="36.73" longitude="-83.65"/>
            </station>
            <station name="Harlan KY US" value="KYZ088">
                <location latitude="36.82" longitude="-83.27"/>
            </station>
            <station name="Carroll KY US" value="KYZ089">
                <location latitude="38.64" longitude="-85.09"/>
            </station>
            <station name="Gallatin KY US" value="KYZ090">
                <location latitude="38.71" longitude="-84.86"/>
            </station>
            <station name="Boone KY US" value="KYZ091">
                <location latitude="38.96" longitude="-84.68"/>
            </station>
            <station name="Kenton KY US" value="KYZ092">
                <location latitude="38.91" longitude="-84.50"/>
            </station>
            <station name="Campbell KY US" value="KYZ093">
                <location latitude="38.91" longitude="-84.35"/>
            </station>
            <station name="Owen KY US" value="KYZ094">
                <location latitude="38.50" longitude="-84.81"/>
            </station>
            <station name="Grant KY US" value="KYZ095">
                <location latitude="38.62" longitude="-84.60"/>
            </station>
            <station name="Pendleton KY US" value="KYZ096">
                <location latitude="38.68" longitude="-84.35"/>
            </station>
            <station name="Bracken KY US" value="KYZ097">
                <location latitude="38.68" longitude="-84.09"/>
            </station>
            <station name="Robertson KY US" value="KYZ098">
                <location latitude="38.52" longitude="-84.02"/>
            </station>
            <station name="Mason KY US" value="KYZ099">
                <location latitude="38.59" longitude="-83.81"/>
            </station>
            <station name="Lewis KY US" value="KYZ100">
                <location latitude="38.52" longitude="-83.42"/>
            </station>
            <station name="Greenup KY US" value="KYZ101">
                <location latitude="38.55" longitude="-82.93"/>
            </station>
            <station name="Carter KY US" value="KYZ102">
                <location latitude="38.32" longitude="-83.05"/>
            </station>
            <station name="Boyd KY US" value="KYZ103">
                <location latitude="38.36" longitude="-82.68"/>
            </station>
            <station name="Elliott KY US" value="KYZ104">
